[
  {
    "region": "Birmingham",
    "borough": "-",
    "site": "Adderley Street",
    "address": "24 Adderley Street",
    "postcode": "B9 4ED",
    "siteCode": "060101 0003",
    "structure": "6 in a row (4 sheets)",
    "quantity": 6.0,
    "lat": 52.474547,
    "lng": -1.88071
  },
  {
    "region": "Birmingham",
    "borough": "-",
    "site": "Coventry Road, Small Heath",
    "address": "26 Coventry Road, Small Heath",
    "postcode": "B10 0RX",
    "siteCode": "060101 0005",
    "structure": "6 in a row (4 sheets)",
    "quantity": 6.0,
    "lat": 52.4725,
    "lng": -1.878287
  },
  {
    "region": "Birmingham",
    "borough": "-",
    "site": "Floodgate Street",
    "address": "Floodgate",
    "postcode": "B5 5SR",
    "siteCode": "060101 0007",
    "structure": "6 in a row (4 sheets)",
    "quantity": 6.0,
    "lat": 52.476072,
    "lng": -1.884372
  },
  {
    "region": "Birmingham",
    "borough": "-",
    "site": "Highgate Road/Woodfield Road",
    "address": "Highgate Road/Woodfield Road",
    "postcode": "B12 0AY",
    "siteCode": "060101 0009",
    "structure": "6 in a row (4 sheets)",
    "quantity": 6.0,
    "lat": 52.462117,
    "lng": -1.882602
  },
  {
    "region": "Birmingham",
    "borough": "-",
    "site": "Old Crown Pub",
    "address": "180 High Street Deritend",
    "postcode": "B12 0LH",
    "siteCode": "060101 1725",
    "structure": "32 Sheet",
    "quantity": 0.0,
    "lat": 52.474711,
    "lng": -1.883129
  },
  {
    "region": "Glasgow",
    "borough": "-",
    "site": "67 Jamaica Street",
    "address": "67 Jamaica Street",
    "postcode": "G1 4NN",
    "siteCode": "080701 6043",
    "structure": "4 Sheet",
    "quantity": 1.0,
    "lat": 55.856858,
    "lng": -4.257129
  },
  {
    "region": "Glasgow",
    "borough": "-",
    "site": "67 Jamaica Street",
    "address": "67 Jamaica Street",
    "postcode": "G1 4NN",
    "siteCode": "080701 6043",
    "structure": "4 Sheet",
    "quantity": 1.0,
    "lat": 55.856858,
    "lng": -4.257129
  },
  {
    "region": "Glasgow",
    "borough": "-",
    "site": "67 Jamaica Street",
    "address": "67 Jamaica Street",
    "postcode": "G1 4NN",
    "siteCode": "080701 6043",
    "structure": "4 Sheet",
    "quantity": 1.0,
    "lat": 55.856858,
    "lng": -4.257129
  },
  {
    "region": "Glasgow",
    "borough": "-",
    "site": "67 Jamaica Street",
    "address": "67 Jamaica Street",
    "postcode": "G1 4NN",
    "siteCode": "080701 6043",
    "structure": "4 Sheet",
    "quantity": 1.0,
    "lat": 55.856858,
    "lng": -4.257129
  },
  {
    "region": "Glasgow",
    "borough": "-",
    "site": "67 Jamaica Street",
    "address": "67 Jamaica Street",
    "postcode": "G1 4NN",
    "siteCode": "080701 6043",
    "structure": "4 Sheet",
    "quantity": 1.0,
    "lat": 55.856858,
    "lng": -4.257129
  },
  {
    "region": "Glasgow",
    "borough": "-",
    "site": "67 Jamaica Street",
    "address": "67 Jamaica Street",
    "postcode": "G1 4NN",
    "siteCode": "080701 6043",
    "structure": "4 Sheet",
    "quantity": 1.0,
    "lat": 55.856858,
    "lng": -4.257129
  },
  {
    "region": "Glasgow",
    "borough": "-",
    "site": "Clyde Street/Dixon Street",
    "address": "",
    "postcode": "G1 4AR",
    "siteCode": "080701 6093",
    "structure": "6 in a row (4 sheets)",
    "quantity": 6.0,
    "lat": 55.856306,
    "lng": -4.255475
  },
  {
    "region": "Glasgow",
    "borough": "-",
    "site": "Clyde Street/Dixon Street",
    "address": "",
    "postcode": "G1 4AR",
    "siteCode": "080701 6093",
    "structure": "6 in a row (4 sheets)",
    "quantity": 6.0,
    "lat": 55.856126,
    "lng": -4.255849
  },
  {
    "region": "Glasgow",
    "borough": "-",
    "site": "St Enoch/Maxwell Street",
    "address": "96 Maxwell Street",
    "postcode": "G1 4EQ",
    "siteCode": "080701 6074",
    "structure": "3 in a row (4 sheets)",
    "quantity": 3.0,
    "lat": 55.856126,
    "lng": -4.253866
  },
  {
    "region": "Glasgow",
    "borough": "-",
    "site": "St Enoch/Maxwell Street",
    "address": "96 Maxwell Street",
    "postcode": "G1 4EQ",
    "siteCode": "080701 6074",
    "structure": "2 in a row (4 sheets)",
    "quantity": 2.0,
    "lat": 55.856126,
    "lng": -4.253866
  },
  {
    "region": "Glasgow",
    "borough": "-",
    "site": "St Enoch/Maxwell Street",
    "address": "96 Maxwell Street",
    "postcode": "G1 4EQ",
    "siteCode": "080701 6074",
    "structure": "2 in a row (4 sheets)",
    "quantity": 2.0,
    "lat": 55.856126,
    "lng": -4.253866
  },
  {
    "region": "Manchester",
    "borough": "-",
    "site": "AO Arena",
    "address": "Cheetham Hill Road",
    "postcode": "M4 4FY",
    "siteCode": "020301 8591",
    "structure": "48 Sheet (portrait)",
    "quantity": 0.0,
    "lat": 53.490161,
    "lng": -2.241876
  },
  {
    "region": "Manchester",
    "borough": "-",
    "site": "Bridgewater Viaduct/Deansgate East",
    "address": "Bridgewater Viaduct",
    "postcode": "M3 4LY",
    "siteCode": "020301 0068",
    "structure": "6 in a row (4 sheets)",
    "quantity": 6.0,
    "lat": 53.474264,
    "lng": -2.252062
  },
  {
    "region": "Manchester",
    "borough": "-",
    "site": "Carpenters Lane/Tib Street (copy)",
    "address": "Carpenters Lane/Tib Street",
    "postcode": "M4 1LX",
    "siteCode": "020301 8567",
    "structure": "4 in a row (4 sheets)",
    "quantity": 4.0,
    "lat": 53.483655,
    "lng": -2.235295
  },
  {
    "region": "Manchester",
    "borough": "-",
    "site": "Deansgate Locks-Whitworth Street",
    "address": "4 Whitworth Street",
    "postcode": "M1 5WY",
    "siteCode": "020301 0063",
    "structure": "4 in a row (4 sheets)",
    "quantity": 4.0,
    "lat": 53.47447,
    "lng": -2.251
  },
  {
    "region": "Manchester",
    "borough": "-",
    "site": "Deansgate Station",
    "address": "Deansgate Station",
    "postcode": "M3 4LY",
    "siteCode": "020301 0071",
    "structure": "6 in a row (4 sheets)",
    "quantity": 6.0,
    "lat": 53.47417,
    "lng": -2.251479
  },
  {
    "region": "Manchester",
    "borough": "-",
    "site": "Ducie Street/Peak Street",
    "address": "",
    "postcode": "M1 2DF",
    "siteCode": "020301 8584",
    "structure": "4 in a row (4 sheets)",
    "quantity": 4.0,
    "lat": 53.480396,
    "lng": -2.228948
  },
  {
    "region": "Manchester",
    "borough": "-",
    "site": "Fairfield Street Piccadilly",
    "address": "",
    "postcode": "M1 2BN",
    "siteCode": "020301 0072",
    "structure": "6 in a row (4 sheets)",
    "quantity": 6.0,
    "lat": 53.476258,
    "lng": -2.228562
  },
  {
    "region": "Manchester",
    "borough": "-",
    "site": "Great Marlborough Street Left",
    "address": "",
    "postcode": "M1 5WW",
    "siteCode": "020301 0037/01",
    "structure": "16 Sheet",
    "quantity": 0.0,
    "lat": 53.474193,
    "lng": -2.242722
  },
  {
    "region": "Manchester",
    "borough": "-",
    "site": "O2 Apollo (A)",
    "address": "A6/A57 - Ardwick Green Roundabout",
    "postcode": "M12 6BW",
    "siteCode": "020301 0628",
    "structure": "48 Sheet",
    "quantity": 0.0,
    "lat": 53.470517,
    "lng": -2.222113
  },
  {
    "region": "Manchester",
    "borough": "-",
    "site": "Spirit Studios",
    "address": "65-69 Downing Street",
    "postcode": "M1 7JE",
    "siteCode": "020301 8585",
    "structure": "4 in a row (4 sheets)",
    "quantity": 4.0,
    "lat": 53.472437,
    "lng": -2.228094
  },
  {
    "region": "London Central",
    "borough": "Hackney",
    "site": "Leonard Street (A)",
    "address": "40 - 54 Leonard Street",
    "postcode": "EC2A 4AA",
    "siteCode": "011201 7058",
    "structure": "3 in a row (4 sheets)",
    "quantity": 3.0,
    "lat": 51.524657,
    "lng": -0.084842
  },
  {
    "region": "London Central",
    "borough": "Hackney",
    "site": "Leonard Street (A)",
    "address": "40 - 54 Leonard Street",
    "postcode": "EC2A 4AA",
    "siteCode": "011201 7058",
    "structure": "3 in a row (4 sheets)",
    "quantity": 3.0,
    "lat": 51.524657,
    "lng": -0.084842
  },
  {
    "region": "London East",
    "borough": "Hackney",
    "site": "Tabernacle Street (A)",
    "address": "Telephone House",
    "postcode": "EC2A 4NW",
    "siteCode": "011201 7096",
    "structure": "6 in a row (4 sheets)",
    "quantity": 6.0,
    "lat": 51.525305,
    "lng": -0.08481
  },
  {
    "region": "London",
    "borough": "Hammersmith",
    "site": "Hammersmith Towers (eastbound)",
    "address": "A4 Talgarth Road, Hammersmith, London",
    "postcode": "W6 8BJ",
    "siteCode": null,
    "structure": null,
    "quantity": null,
    "lat": 51.4904,
    "lng": -0.2197,
    "_coordSource": "postcode-approx"
  }
]